[
  {"name":"Caíque Silva","address":"Rua Leonor do Rosário, 81 (casa 3) - Jd. Santa Mônica, Campinas, SP","cep":"13084-210","day":"Quintas-feiras","time":"20h","contact":"(19) 99251-1313","lat":-22.8475252,"lon":-47.1009033,"active":true},
  {"name":"Dener Rodrigues","address":"Rua Professor Mauricio Francisco Ceolin, 58 - Bloco 03 Ap 103 - Jardim Centenário, Campinas, SP","cep":"13063-420","day":"Quartas-feiras","time":"19h30","contact":"(19) 98303-7385","lat":-22.9125345,"lon":-47.1187445,"active":true},
  {"name":"Erickson Brandão","address":"Rua Maria Escrig Gonzalbo de Rosique, 138 - Jardim Aeronave de Viracopos, Campinas, SP","cep":"13054-000","day":"Quartas-feiras","time":"19h30","contact":"(11) 98082-4867","lat":-23.006935,"lon":-47.12457,"active":true},
  {"name":"Guilherme Ponce","address":"Rua Hélcio Lizzard, 852 - Pq. Jambeiro, Campinas, SP","cep":"13042-321","day":"Quartas-feiras","time":"19h30","contact":"(19) 99343-4985","lat":-22.9566373,"lon":-47.0505166,"active":true},
  {"name":"Gustavo Guedes","address":"Av. Joaquim Payolla, 769 - Parque da Figueira, Campinas, SP","cep":"13040-025","day":"Quartas-feiras","time":"19h30","contact":"(19) 99578-0366","lat":-22.9377488,"lon":-47.0673428,"active":true},
  {"name":"João/Jonatas Benevides","address":"Rua Patativa, 210 - Bloco G Ap 24 - Vila Nova Teixeira, Campinas, SP","cep":"13040-100","day":"Quartas-feiras","time":"19h30","contact":"(19) 99848-9998 / (11) 98571-8107","lat":-22.902006,"lon":-47.0878588,"active":true},
  {"name":"Juan Baptista","address":"Rua José Ademar Etter, 339 - Vila Marietta, Campinas, SP","cep":"13076-060","day":"Quartas-feiras","time":"19h30","contact":"(21) 99527-7791","lat":-22.8837324,"lon":-47.0526315,"active":true},
  {"name":"Matheus Comitre","address":"Rua Agnaldo Macedo, 579 - Jd. das Oliveiras, Campinas, SP","cep":"13044-670","day":"Quartas-feiras","time":"19h30","contact":"(19) 98110-1939","lat":-22.9540026,"lon":-47.0620868,"active":true},
  {"name":"Matheus Mion","address":"Avenida Dr Luis de Tella, 814 - Cidade Universitária II, Campinas, SP","cep":"13083-865","day":"Quintas-feiras","time":"19h30","contact":"(19) 98411-2451","lat":-22.8228328,"lon":-47.0700147,"active":true},
  {"name":"Ricardo Sampaio","address":"Rua Rio Paraná, 61, Residencial Colina das Nascentes, Campinas, SP","cep":"13051-228","day":"Sábados","time":"16h","contact":"(19) 99194-0273","lat":-22.9555139,"lon":-47.1192931,"active":true},
  {"name":"Thiago Justo","address":"Rua Patativa, 210 - Bloco B Ap. 64 - Vila Nova Teixeira, Campinas, SP","cep":"13040-100","day":"Quintas-feiras","time":"19:30","contact":"(14) 99881-1008","lat":-22.902006,"lon":-47.0878588,"active":true},
  {"name":"Thyago Alves","address":"Rua Patativa, 210 - Bloco C Ap 74 - Vila Nova Teixeira, Campinas, SP","cep":"13040-100","day":"Quartas-feiras","time":"19h30","contact":"(62) 98187-8405","lat":-22.902006,"lon":-47.0878588,"active":true},
  {"name":"Udson Brener","address":"Rua Redentor Natali, 236. Ap 4 - Parque Via Norte, Campinas, SP","cep":"13067-170","day":"Sábados","time":"15h","contact":"(19) 98867-3048","lat":-22.8809985,"lon":-47.1084813,"active":true},
  {"name":"Vinícius Marchetti","address":"Rua Agnaldo Macedo, 579 - Jd. das Oliveiras, Campinas, SP","cep":"13044-670","day":"Quartas-feiras","time":"19h30","contact":"(19) 99175-3293","lat":-22.9540026,"lon":-47.0620868,"active":true},
  {"name":"Marcelo Ferrari","address":"Rua Elso Previtale, 645. Condomínio Vivenda das Cerejeiras, Casa 67. Jardim Alto da Colina, Valinhos, SP","cep":"13271-550","day":"Quartas-feiras","time":"19h30","contact":"(19) 98297-5511","lat":-22.9739454,"lon":-46.9922003,"active":true},
  {"name":"André Bueno","address":"Avenida do Bosque, 60. Casa 01 - Bosque/Vila João XXIII, Vinhedo, SP","cep":"13280-000","day":"Quartas-feiras","time":"19h45","contact":"(19) 98136-0118","lat":-23.016335,"lon":-47.0016021,"active":true},
  {"name":"Caíque Granado","address":"Rua Buenos Aires, 211 - Nova Vinhedo, Vinhedo, SP","cep":"13284-500","day":"Quartas-feiras","time":"19h40","contact":"(19) 99940-1065","lat":-23.0487019,"lon":-47.000305,"active":true},
  {"name":"Jeferson Francisco","address":"Rua Benedito Tobias, 56 - Nova Palmares, Vinhedo, SP","cep":"13280-000","day":"Quartas-feiras","time":"19h30","contact":"(19) 98193-3596","lat":-23.016335,"lon":-47.0016021,"active":true}
]